{"_id": "sample-01", "_type": "mapLocation",  "name": "_Nicky’s Unisex", "streetAddress": "90 S. 4th Street", "city": "New York City", "state": "NY", "postalCode": "11249", "latitude": 40.71249878101534, "longitude": -73.96439797296418}
{"_id": "sample-02", "_type": "mapLocation",  "name": "_Diner", "streetAddress": "85 Broadway", "city": "New York City", "state": "NY", "postalCode": "11249", "latitude": 40.71113919956076, "longitude": -73.96563315947101}
{"_id": "sample-03", "_type": "mapLocation",  "name": "_JANE Motorcycles", "streetAddress": "396 Wythe Ave.", "city": "New York City", "state": "NY", "postalCode": "11249", "latitude": 40.71269171280051, "longitude": -73.9661071594709}
{"_id": "sample-04", "_type": "mapLocation",  "name": "_Paulie Gee’s", "streetAddress": "60 Greenpoint Ave.", "city": "New York City", "state": "NY", "postalCode": "11222", "latitude": 40.72975318603367, "longitude": -73.9585627306349}
{"_id": "sample-05", "_type": "mapLocation",  "name": "_Forgtmenot", "streetAddress": "138 Division Street", "city": "New York City", "state": "NY", "postalCode": "10002", "latitude": 40.71470948151879, "longitude": -73.99152413063524}
{"_id": "sample-06", "_type": "mapLocation",  "name": "_Wayland", "streetAddress": "700 E. 9th Street", "city": "New York City", "state": "NY", "postalCode": "10009", "latitude": 40.72777113934748, "longitude": -73.97764477821384}
{"_id": "sample-07", "_type": "mapLocation",  "name": "_Entwine", "streetAddress": "765 Washington Street", "city": "New York City", "state": "NY", "postalCode": "10014", "latitude": 40.737755660971494, "longitude": -74.00808429015494}
{"_id": "sample-08", "_type": "mapLocation",  "name": "_Hekate Café & Elixir Lounge", "streetAddress": "167 Avenue B", "city": "New York City", "state": "NY", "postalCode": "10009", "latitude": 40.727294505238795, "longitude": -73.979466830635}
{"_id": "sample-09", "_type": "mapLocation",  "name": "_Kalustyan’s", "streetAddress": "123 Lexington Ave.", "city": "New York City", "state": "NY", "postalCode": "10016", "latitude": 40.74301073047782, "longitude": -73.98214388830579}
{"_id": "sample-10", "_type": "mapLocation",  "name": "_Spoonbill & Sugartown Books", "streetAddress": "218 Bedford Ave.", "city": "New York City", "state": "NY", "postalCode": "11211", "latitude": 40.71678734482913, "longitude": -73.95921525762188}
