{"_id": "sample-00", "_type": "mapLocation", "name": "Diner", "streetAddress": "85 Broadway", "city": "New York City", "state": "NY", "postalCode": "11249", "latitude": 40.710659406666224, "longitude": -73.96562242923267}
{"_id": "sample-01", "_type": "mapLocation", "name": "Entwine", "streetAddress": "765 Washington Street", "city": "New York City", "state": "NY", "postalCode": "10014", "latitude": 40.73731667803465, "longitude": -74.0080628324838}
{"_id": "sample-02", "_type": "mapLocation", "name": "Forgtmenot", "streetAddress": "138 Division Street", "city": "New York City", "state": "NY", "postalCode": "10002", "latitude": 40.714534567326886, "longitude": -73.99150804719524}
{"_id": "sample-03", "_type": "mapLocation", "name": "Hekate Café & Elixir Lounge", "streetAddress": "167 Avenue B", "city": "New York City", "state": "NY", "postalCode": "10009", "latitude": 40.727294505238795, "longitude": -73.979466830635}
{"_id": "sample-04", "_type": "mapLocation", "name": "JANE Motorcycles", "streetAddress": "396 Wythe Ave.", "city": "New York City", "state": "NY", "postalCode": "11249", "latitude": 40.71269171280051, "longitude": -73.9661071594709}
{"_id": "sample-05", "_type": "mapLocation", "name": "Kalustyan’s", "streetAddress": "123 Lexington Ave.", "city": "New York City", "state": "NY", "postalCode": "10016", "latitude": 40.74281564272101, "longitude": -73.98217607481251}
{"_id": "sample-06", "_type": "mapLocation", "name": "Nicky’s Unisex", "streetAddress": "90 S. 4th Street", "city": "New York City", "state": "NY", "postalCode": "11249", "latitude": 40.71249878101534, "longitude": -73.96439797296418}
{"_id": "sample-07", "_type": "mapLocation", "name": "Paulie Gee’s", "streetAddress": "60 Greenpoint Ave.", "city": "New York City", "state": "NY", "postalCode": "11222", "latitude": 40.72975318603367, "longitude": -73.9585627306349}
{"_id": "sample-08", "_type": "mapLocation", "name": "Spoonbill & Sugartown Books", "streetAddress": "218 Bedford Ave.", "city": "New York City", "state": "NY", "postalCode": "11211", "latitude": 40.716559652678036, "longitude": -73.95923671529303}
{"_id": "sample-09", "_type": "mapLocation", "name": "Wayland", "streetAddress": "700 E. 9th Street", "city": "New York City", "state": "NY", "postalCode": "10009", "latitude": 40.725100274303045, "longitude": -73.97785081161133}
